{"items":[{"title":"Bangalore Kidney Stone Hospital","id":"here:pds:place:356tdr1v-631237cbf2ea443faad66ff0465a1dd5","ontologyId":"here:cm:ontology:hospital","resultType":"place","address":{"label":"Bangalore Kidney Stone Hospital, J C Road, Sampangi Rama Nagar, Bengaluru 560027, India","countryCode":"IND","countryName":"India","stateCode":"KA","state":"Karnataka","county":"Bengaluru","city":"Bengaluru","district":"Sampangi Rama Nagar","street":"J C Road","postalCode":"560027"},"position":{"lat":12.96747,"lng":77.58878},"access":[{"lat":12.96699,"lng":77.58902}],"distance":216,"categories":[{"id":"800-8000-0159","name":"Лікарня","primary":true}],"references":[{"supplier":{"id":"core"},"id":"1070052065"}],"contacts":[{"phone":[{"value":"+918022226534"},{"value":"+918022242080"}]}]},{"title":"Bangalore Institute of Oncology Specialty Centre","id":"here:pds:place:356tdr1v-46e9369adcef4f47a88f0c21dc12c4cc","ontologyId":"here:cm:ontology:hospital","resultType":"place","address":{"label":"Bangalore Institute of Oncology Specialty Centre, Devanga Samaja Road, Karagappa Garden, Sampangi Rama Nagar, Bengaluru 560027, India","countryCode":"IND","countryName":"India","stateCode":"KA","state":"Karnataka","county":"Bengaluru","city":"Bengaluru","district":"Sampangi Rama Nagar","subdistrict":"Karagappa Garden","street":"Devanga Samaja Road","postalCode":"560027"},"position":{"lat":12.96449,"lng":77.58961},"access":[{"lat":12.96449,"lng":77.58951}],"distance":347,"categories":[{"id":"800-8000-0159","name":"Лікарня","primary":true}],"references":[{"supplier":{"id":"core"},"id":"1083515535"}],"contacts":[{"phone":[{"value":"+918040206407"}],"www":[{"value":"http://www.SWASTIGALLERY.IN"}]}]},{"title":"HCG-Health Care Global","id":"here:pds:place:356tdr1t-68c51e7443784dc6ad997c37d4f42913","ontologyId":"here:cm:ontology:hospital","resultType":"place","address":{"label":"HCG-Health Care Global, Devanga Samaja Road, Karagappa Garden, Sampangi Rama Nagar, Bengaluru 560027, India","countryCode":"IND","countryName":"India","stateCode":"KA","state":"Karnataka","county":"Bengaluru","city":"Bengaluru","district":"Sampangi Rama Nagar","subdistrict":"Karagappa Garden","street":"Devanga Samaja Road","postalCode":"560027"},"position":{"lat":12.96417,"lng":77.58959},"access":[{"lat":12.96424,"lng":77.58946}],"distance":369,"categories":[{"id":"800-8000-0159","name":"Лікарня","primary":true}],"references":[{"supplier":{"id":"core"},"id":"1115446799"}],"contacts":[{"phone":[{"value":"+918040206000"},{"value":"+918040206001"}],"www":[{"value":"https://www.hcgoncology.com"}]}]},{"title":"Dharmaprakasha N Dasappa Thirumalamma Maternity Home","id":"here:pds:place:356jx7ps-762de207f44c078ff013f0ab5635d3c4","ontologyId":"here:cm:ontology:hospital","resultType":"place","address":{"label":"Dharmaprakasha N Dasappa Thirumalamma Maternity Home, SJP Road, Nagarathpete, Bengaluru 560002, India","countryCode":"IND","countryName":"India","stateCode":"KA","state":"Karnataka","county":"Bengaluru","city":"Bengaluru","district":"Nagarathpete","street":"SJP Road","postalCode":"560002"},"position":{"lat":12.96384,"lng":77.58445},"access":[{"lat":12.96382,"lng":77.58445}],"distance":407,"categories":[{"id":"800-8000-0159","name":"Лікарня","primary":true}],"references":[{"supplier":{"id":"core"},"id":"1100406921"}]},{"title":"ST. Martha's Hospital","id":"here:pds:place:356tdr1v-021cdf05fe1a453a9f2124eeff3e3182","ontologyId":"here:cm:ontology:hospital","resultType":"place","address":{"label":"ST. Martha's Hospital, Sampangi Rama Nagar, Bengaluru 560027, India","countryCode":"IND","countryName":"India","stateCode":"KA","state":"Karnataka","county":"Bengaluru","city":"Bengaluru","district":"Sampangi Rama Nagar","postalCode":"560027"},"position":{"lat":12.97078,"lng":77.58635},"access":[{"lat":12.97075,"lng":77.58636}],"distance":490,"categories":[{"id":"800-8000-0159","name":"Лікарня","primary":true}],"references":[{"supplier":{"id":"core"},"id":"1178761233"}]}]}